[
  {
    "id": 1,
    "name": "Amaravati",
    "district": "Palnadu",
    "state": "Andhra Pradesh",
    "population": 15680,
    "households": 3890,
    "risk": 72,
    "weather": "Sunny",
    "temperature": 33,
    "crop": "Cotton",
    "lat": 16.5720,
    "lng": 80.3575
  },
  {
    "id": 2,
    "name": "Puttaparthi",
    "district": "Sri Sathya Sai",
    "state": "Andhra Pradesh",
    "population": 11240,
    "households": 2810,
    "risk": 48,
    "weather": "Sunny",
    "temperature": 34,
    "crop": "Groundnut",
    "lat": 14.1652,
    "lng": 77.8117
  },
  {
    "id": 3,
    "name": "Srikalahasti",
    "district": "Tirupati",
    "state": "Andhra Pradesh",
    "population": 18420,
    "households": 4560,
    "risk": 67,
    "weather": "Cloudy",
    "temperature": 31,
    "crop": "Paddy",
    "lat": 13.7498,
    "lng": 79.6984
  },
  {
    "id": 4,
    "name": "Araku Valley",
    "district": "Alluri Sitharama Raju",
    "state": "Andhra Pradesh",
    "population": 9840,
    "households": 2390,
    "risk": 82,
    "weather": "Rain",
    "temperature": 24,
    "crop": "Coffee",
    "lat": 18.3275,
    "lng": 82.8726
  },
  {
    "id": 5,
    "name": "Mangalagiri",
    "district": "Guntur",
    "state": "Andhra Pradesh",
    "population": 21450,
    "households": 5280,
    "risk": 61,
    "weather": "Sunny",
    "temperature": 34,
    "crop": "Cotton",
    "lat": 16.4303,
    "lng": 80.5681
  },
  {
    "id": 6,
    "name": "Bhimavaram",
    "district": "West Godavari",
    "state": "Andhra Pradesh",
    "population": 24100,
    "households": 6020,
    "risk": 76,
    "weather": "Cloudy",
    "temperature": 30,
    "crop": "Rice",
    "lat": 16.5449,
    "lng": 81.5212
  },
  {
    "id": 7,
    "name": "Pulivendula",
    "district": "YSR Kadapa",
    "state": "Andhra Pradesh",
    "population": 13680,
    "households": 3320,
    "risk": 58,
    "weather": "Sunny",
    "temperature": 35,
    "crop": "Groundnut",
    "lat": 14.4213,
    "lng": 78.2250
  },
  {
    "id": 8,
    "name": "Tekkali",
    "district": "Srikakulam",
    "state": "Andhra Pradesh",
    "population": 10350,
    "households": 2510,
    "risk": 83,
    "weather": "Rain",
    "temperature": 28,
    "crop": "Cashew",
    "lat": 18.6064,
    "lng": 84.2356
  },
  {
    "id": 9,
    "name": "Nandigama",
    "district": "NTR",
    "state": "Andhra Pradesh",
    "population": 16750,
    "households": 4140,
    "risk": 54,
    "weather": "Sunny",
    "temperature": 33,
    "crop": "Chilli",
    "lat": 16.7717,
    "lng": 80.2867
  },
  {
    "id": 10,
    "name": "Rayadurg",
    "district": "Anantapur",
    "state": "Andhra Pradesh",
    "population": 14960,
    "households": 3710,
    "risk": 69,
    "weather": "Cloudy",
    "temperature": 32,
    "crop": "Millets",
    "lat": 14.6995,
    "lng": 76.8522
  },
{
  "id": 11,
  "name": "Simhachalam",
  "district": "Visakhapatnam",
  "state": "Andhra Pradesh",
  "population": 18520,
  "households": 4620,
  "risk": 65,
  "weather": "Cloudy",
  "temperature": 29,
  "crop": "Cashew",
  "lat": 17.7667,
  "lng": 83.2500
},
{
  "id": 12,
  "name": "Bobbili",
  "district": "Vizianagaram",
  "state": "Andhra Pradesh",
  "population": 16840,
  "households": 4210,
  "risk": 57,
  "weather": "Sunny",
  "temperature": 31,
  "crop": "Sugarcane",
  "lat": 18.5730,
  "lng": 83.3570
},
{
  "id": 13,
  "name": "Salur",
  "district": "Parvathipuram Manyam",
  "state": "Andhra Pradesh",
  "population": 12260,
  "households": 3040,
  "risk": 81,
  "weather": "Rain",
  "temperature": 25,
  "crop": "Turmeric",
  "lat": 18.5170,
  "lng": 83.2050
},
{
  "id": 14,
  "name": "Kakinada Rural",
  "district": "Kakinada",
  "state": "Andhra Pradesh",
  "population": 21400,
  "households": 5330,
  "risk": 73,
  "weather": "Cloudy",
  "temperature": 30,
  "crop": "Rice",
  "lat": 16.9890,
  "lng": 82.2475
},
{
  "id": 15,
  "name": "Amalapuram",
  "district": "Konaseema",
  "state": "Andhra Pradesh",
  "population": 19680,
  "households": 4880,
  "risk": 42,
  "weather": "Sunny",
  "temperature": 31,
  "crop": "Coconut",
  "lat": 16.5780,
  "lng": 82.0060
},
{
  "id": 16,
  "name": "Nuzvid",
  "district": "Eluru",
  "state": "Andhra Pradesh",
  "population": 17430,
  "households": 4360,
  "risk": 62,
  "weather": "Sunny",
  "temperature": 33,
  "crop": "Mango",
  "lat": 16.7890,
  "lng": 80.8450
},
{
  "id": 17,
  "name": "Addanki",
  "district": "Bapatla",
  "state": "Andhra Pradesh",
  "population": 13980,
  "households": 3490,
  "risk": 70,
  "weather": "Cloudy",
  "temperature": 32,
  "crop": "Tobacco",
  "lat": 15.8100,
  "lng": 79.9730
},
{
  "id": 18,
  "name": "Markapur",
  "district": "Prakasam",
  "state": "Andhra Pradesh",
  "population": 22840,
  "households": 5690,
  "risk": 88,
  "weather": "Rain",
  "temperature": 27,
  "crop": "Cotton",
  "lat": 15.7350,
  "lng": 79.2680
},
{
  "id": 19,
  "name": "Atmakur",
  "district": "SPSR Nellore",
  "state": "Andhra Pradesh",
  "population": 14650,
  "households": 3650,
  "risk": 53,
  "weather": "Sunny",
  "temperature": 34,
  "crop": "Paddy",
  "lat": 14.6200,
  "lng": 79.6100
},
{
  "id": 20,
  "name": "Udayagiri",
  "district": "SPSR Nellore",
  "state": "Andhra Pradesh",
  "population": 11840,
  "households": 2950,
  "risk": 79,
  "weather": "Cloudy",
  "temperature": 30,
  "crop": "Groundnut",
  "lat": 14.8700,
  "lng": 79.3100
},
{
  "id": 21,
  "name": "Nandyal",
  "district": "Nandyal",
  "state": "Andhra Pradesh",
  "population": 24780,
  "households": 6190,
  "risk": 66,
  "weather": "Sunny",
  "temperature": 34,
  "crop": "Cotton",
  "lat": 15.4781,
  "lng": 78.4836
},
{
  "id": 22,
  "name": "Adoni",
  "district": "Kurnool",
  "state": "Andhra Pradesh",
  "population": 21460,
  "households": 5360,
  "risk": 57,
  "weather": "Cloudy",
  "temperature": 35,
  "crop": "Groundnut",
  "lat": 15.6279,
  "lng": 77.2749
},
{
  "id": 23,
  "name": "Madanapalle",
  "district": "Annamayya",
  "state": "Andhra Pradesh",
  "population": 19820,
  "households": 4950,
  "risk": 61,
  "weather": "Sunny",
  "temperature": 29,
  "crop": "Tomato",
  "lat": 13.5503,
  "lng": 78.5029
},
{
  "id": 24,
  "name": "Punganur",
  "district": "Chittoor",
  "state": "Andhra Pradesh",
  "population": 12650,
  "households": 3140,
  "risk": 49,
  "weather": "Sunny",
  "temperature": 31,
  "crop": "Mango",
  "lat": 13.3665,
  "lng": 78.5719
},
{
  "id": 25,
  "name": "Machilipatnam",
  "district": "Krishna",
  "state": "Andhra Pradesh",
  "population": 23240,
  "households": 5810,
  "risk": 78,
  "weather": "Cloudy",
  "temperature": 30,
  "crop": "Paddy",
  "lat": 16.1875,
  "lng": 81.1389
},
{
  "id": 26,
  "name": "Gudivada",
  "district": "Krishna",
  "state": "Andhra Pradesh",
  "population": 22160,
  "households": 5530,
  "risk": 55,
  "weather": "Sunny",
  "temperature": 33,
  "crop": "Sugarcane",
  "lat": 16.4355,
  "lng": 80.9956
},
{
  "id": 27,
  "name": "Tuni",
  "district": "Kakinada",
  "state": "Andhra Pradesh",
  "population": 18640,
  "households": 4660,
  "risk": 71,
  "weather": "Cloudy",
  "temperature": 30,
  "crop": "Coconut",
  "lat": 17.3591,
  "lng": 82.5460
},
{
  "id": 28,
  "name": "Paderu",
  "district": "Alluri Sitharama Raju",
  "state": "Andhra Pradesh",
  "population": 10580,
  "households": 2640,
  "risk": 89,
  "weather": "Rain",
  "temperature": 23,
  "crop": "Coffee",
  "lat": 18.0816,
  "lng": 82.6128
},
{
  "id": 29,
  "name": "Rajamahendravaram Rural",
  "district": "East Godavari",
  "state": "Andhra Pradesh",
  "population": 20890,
  "households": 5210,
  "risk": 64,
  "weather": "Cloudy",
  "temperature": 31,
  "crop": "Paddy",
  "lat": 17.0005,
  "lng": 81.8040
},
{
  "id": 30,
  "name": "Bhadrachalam Road",
  "district": "Eluru",
  "state": "Andhra Pradesh",
  "population": 11780,
  "households": 2930,
  "risk": 83,
  "weather": "Rain",
  "temperature": 27,
  "crop": "Chilli",
  "lat": 17.8782,
  "lng": 81.9312
},
{
  "id": 31,
  "name": "Narasaraopet",
  "district": "Palnadu",
  "state": "Andhra Pradesh",
  "population": 28450,
  "households": 7110,
  "risk": 59,
  "weather": "Sunny",
  "temperature": 34,
  "crop": "Cotton",
  "lat": 16.2350,
  "lng": 80.0490
},
{
  "id": 32,
  "name": "Repalle",
  "district": "Bapatla",
  "state": "Andhra Pradesh",
  "population": 17320,
  "households": 4330,
  "risk": 74,
  "weather": "Cloudy",
  "temperature": 31,
  "crop": "Paddy",
  "lat": 16.0170,
  "lng": 80.8500
},
{
  "id": 33,
  "name": "Kavali",
  "district": "SPSR Nellore",
  "state": "Andhra Pradesh",
  "population": 26380,
  "households": 6590,
  "risk": 68,
  "weather": "Sunny",
  "temperature": 33,
  "crop": "Tobacco",
  "lat": 14.9160,
  "lng": 79.9930
},
{
  "id": 34,
  "name": "Venkatagiri",
  "district": "Tirupati",
  "state": "Andhra Pradesh",
  "population": 15280,
  "households": 3820,
  "risk": 52,
  "weather": "Sunny",
  "temperature": 32,
  "crop": "Groundnut",
  "lat": 13.9600,
  "lng": 79.5830
},
{
  "id": 35,
  "name": "Dharmavaram",
  "district": "Sri Sathya Sai",
  "state": "Andhra Pradesh",
  "population": 30960,
  "households": 7740,
  "risk": 63,
  "weather": "Cloudy",
  "temperature": 34,
  "crop": "Silk",
  "lat": 14.4140,
  "lng": 77.7200
},
{
  "id": 36,
  "name": "Hindupur",
  "district": "Sri Sathya Sai",
  "state": "Andhra Pradesh",
  "population": 33480,
  "households": 8370,
  "risk": 58,
  "weather": "Sunny",
  "temperature": 35,
  "crop": "Groundnut",
  "lat": 13.8280,
  "lng": 77.4920
},
{
  "id": 37,
  "name": "Proddatur",
  "district": "YSR Kadapa",
  "state": "Andhra Pradesh",
  "population": 29850,
  "households": 7460,
  "risk": 69,
  "weather": "Cloudy",
  "temperature": 33,
  "crop": "Cotton",
  "lat": 14.7510,
  "lng": 78.5480
},
{
  "id": 38,
  "name": "Kadiri",
  "district": "Sri Sathya Sai",
  "state": "Andhra Pradesh",
  "population": 19140,
  "households": 4780,
  "risk": 77,
  "weather": "Rain",
  "temperature": 28,
  "crop": "Groundnut",
  "lat": 14.1120,
  "lng": 78.1610
},
{
  "id": 39,
  "name": "Yemmiganur",
  "district": "Kurnool",
  "state": "Andhra Pradesh",
  "population": 21480,
  "households": 5370,
  "risk": 56,
  "weather": "Sunny",
  "temperature": 34,
  "crop": "Sunflower",
  "lat": 15.7300,
  "lng": 77.4800
},
{
  "id": 40,
  "name": "Kuppam",
  "district": "Chittoor",
  "state": "Andhra Pradesh",
  "population": 18420,
  "households": 4600,
  "risk": 46,
  "weather": "Cloudy",
  "temperature": 29,
  "crop": "Mango",
  "lat": 12.7490,
  "lng": 78.3410
},
{
  "id": 41,
  "name": "Bhadrachalam",
  "district": "Bhadradri Kothagudem",
  "state": "Telangana",
  "population": 24180,
  "households": 6050,
  "risk": 79,
  "weather": "Rain",
  "temperature": 29,
  "crop": "Chilli",
  "lat": 17.6688,
  "lng": 80.8932
},
{
  "id": 42,
  "name": "Medak",
  "district": "Medak",
  "state": "Telangana",
  "population": 18450,
  "households": 4610,
  "risk": 61,
  "weather": "Cloudy",
  "temperature": 30,
  "crop": "Maize",
  "lat": 18.0453,
  "lng": 78.2600
},
{
  "id": 43,
  "name": "Siddipet",
  "district": "Siddipet",
  "state": "Telangana",
  "population": 26740,
  "households": 6680,
  "risk": 54,
  "weather": "Sunny",
  "temperature": 33,
  "crop": "Cotton",
  "lat": 18.1040,
  "lng": 78.8520
},
{
  "id": 44,
  "name": "Jagtial",
  "district": "Jagtial",
  "state": "Telangana",
  "population": 22360,
  "households": 5590,
  "risk": 71,
  "weather": "Cloudy",
  "temperature": 31,
  "crop": "Turmeric",
  "lat": 18.7909,
  "lng": 78.9120
},
{
  "id": 45,
  "name": "Mahabubnagar",
  "district": "Mahabubnagar",
  "state": "Telangana",
  "population": 29680,
  "households": 7420,
  "risk": 66,
  "weather": "Sunny",
  "temperature": 34,
  "crop": "Groundnut",
  "lat": 16.7488,
  "lng": 77.9860
},
{
  "id": 46,
  "name": "Kamareddy",
  "district": "Kamareddy",
  "state": "Telangana",
  "population": 20540,
  "households": 5130,
  "risk": 58,
  "weather": "Sunny",
  "temperature": 32,
  "crop": "Sugarcane",
  "lat": 18.3200,
  "lng": 78.3400
},
{
  "id": 47,
  "name": "Atchampet",
  "district": "Palnadu",
  "state": "Andhra Pradesh",
  "population": 13920,
  "households": 3480,
  "risk": 83,
  "weather": "Rain",
  "temperature": 28,
  "crop": "Cotton",
  "lat": 16.0880,
  "lng": 79.7430
},
{
  "id": 48,
  "name": "Macherla",
  "district": "Palnadu",
  "state": "Andhra Pradesh",
  "population": 19280,
  "households": 4820,
  "risk": 64,
  "weather": "Cloudy",
  "temperature": 30,
  "crop": "Chilli",
  "lat": 16.4760,
  "lng": 79.4350
},
{
  "id": 49,
  "name": "Suryapet",
  "district": "Suryapet",
  "state": "Telangana",
  "population": 31850,
  "households": 7960,
  "risk": 75,
  "weather": "Sunny",
  "temperature": 34,
  "crop": "Paddy",
  "lat": 17.1400,
  "lng": 79.6200
},
{
  "id": 50,
  "name": "Vikarabad",
  "district": "Vikarabad",
  "state": "Telangana",
  "population": 17680,
  "households": 4420,
  "risk": 47,
  "weather": "Cloudy",
  "temperature": 29,
  "crop": "Maize",
  "lat": 17.3380,
  "lng": 77.9040
},
{
  "id": 51,
  "name": "Karimnagar",
  "district": "Karimnagar",
  "state": "Telangana",
  "population": 32450,
  "households": 8110,
  "risk": 58,
  "weather": "Sunny",
  "temperature": 33,
  "crop": "Maize",
  "lat": 18.4386,
  "lng": 79.1288
},
{
  "id": 52,
  "name": "Nizamabad",
  "district": "Nizamabad",
  "state": "Telangana",
  "population": 35820,
  "households": 8950,
  "risk": 62,
  "weather": "Cloudy",
  "temperature": 31,
  "crop": "Turmeric",
  "lat": 18.6725,
  "lng": 78.0941
},
{
  "id": 53,
  "name": "Warangal",
  "district": "Hanamkonda",
  "state": "Telangana",
  "population": 41580,
  "households": 10390,
  "risk": 69,
  "weather": "Cloudy",
  "temperature": 30,
  "crop": "Cotton",
  "lat": 17.9689,
  "lng": 79.5941
},
{
  "id": 54,
  "name": "Khammam",
  "district": "Khammam",
  "state": "Telangana",
  "population": 33760,
  "households": 8440,
  "risk": 72,
  "weather": "Rain",
  "temperature": 29,
  "crop": "Chilli",
  "lat": 17.2473,
  "lng": 80.1514
},
{
  "id": 55,
  "name": "Sangareddy",
  "district": "Sangareddy",
  "state": "Telangana",
  "population": 24820,
  "households": 6200,
  "risk": 55,
  "weather": "Sunny",
  "temperature": 32,
  "crop": "Sugarcane",
  "lat": 17.6244,
  "lng": 78.0867
},
{
  "id": 56,
  "name": "Nalgonda",
  "district": "Nalgonda",
  "state": "Telangana",
  "population": 28640,
  "households": 7160,
  "risk": 63,
  "weather": "Sunny",
  "temperature": 34,
  "crop": "Paddy",
  "lat": 17.0575,
  "lng": 79.2672
},
{
  "id": 57,
  "name": "Jangaon",
  "district": "Jangaon",
  "state": "Telangana",
  "population": 17380,
  "households": 4340,
  "risk": 67,
  "weather": "Cloudy",
  "temperature": 30,
  "crop": "Cotton",
  "lat": 17.7265,
  "lng": 79.1515
},
{
  "id": 58,
  "name": "Mancherial",
  "district": "Mancherial",
  "state": "Telangana",
  "population": 21460,
  "households": 5360,
  "risk": 60,
  "weather": "Sunny",
  "temperature": 33,
  "crop": "Rice",
  "lat": 18.8756,
  "lng": 79.4617
},
{
  "id": 59,
  "name": "Bhupalpally",
  "district": "Jayashankar Bhupalpally",
  "state": "Telangana",
  "population": 16420,
  "households": 4100,
  "risk": 84,
  "weather": "Rain",
  "temperature": 28,
  "crop": "Cotton",
  "lat": 18.4302,
  "lng": 79.8793
},
{
  "id": 60,
  "name": "Nagarkurnool",
  "district": "Nagarkurnool",
  "state": "Telangana",
  "population": 19280,
  "households": 4820,
  "risk": 59,
  "weather": "Sunny",
  "temperature": 32,
  "crop": "Groundnut",
  "lat": 16.4821,
  "lng": 78.3247
},
{
  "id": 61,
  "name": "Gadwal",
  "district": "Jogulamba Gadwal",
  "state": "Telangana",
  "population": 21480,
  "households": 5370,
  "risk": 64,
  "weather": "Sunny",
  "temperature": 34,
  "crop": "Cotton",
  "lat": 16.2350,
  "lng": 77.7950
},
{
  "id": 62,
  "name": "Wanaparthy",
  "district": "Wanaparthy",
  "state": "Telangana",
  "population": 18320,
  "households": 4580,
  "risk": 56,
  "weather": "Cloudy",
  "temperature": 32,
  "crop": "Groundnut",
  "lat": 16.3610,
  "lng": 78.0620
},
{
  "id": 63,
  "name": "Narayanpet",
  "district": "Narayanpet",
  "state": "Telangana",
  "population": 17140,
  "households": 4280,
  "risk": 62,
  "weather": "Sunny",
  "temperature": 35,
  "crop": "Jowar",
  "lat": 16.7440,
  "lng": 77.4950
},
{
  "id": 64,
  "name": "Asifabad",
  "district": "Komaram Bheem Asifabad",
  "state": "Telangana",
  "population": 14280,
  "households": 3570,
  "risk": 81,
  "weather": "Rain",
  "temperature": 27,
  "crop": "Cotton",
  "lat": 19.3580,
  "lng": 79.2840
},
{
  "id": 65,
  "name": "Bellampalli",
  "district": "Mancherial",
  "state": "Telangana",
  "population": 22360,
  "households": 5590,
  "risk": 67,
  "weather": "Cloudy",
  "temperature": 30,
  "crop": "Rice",
  "lat": 19.0550,
  "lng": 79.4940
},
{
  "id": 66,
  "name": "Kothagudem",
  "district": "Bhadradri Kothagudem",
  "state": "Telangana",
  "population": 29650,
  "households": 7410,
  "risk": 74,
  "weather": "Rain",
  "temperature": 28,
  "crop": "Chilli",
  "lat": 17.5510,
  "lng": 80.6170
},
{
  "id": 67,
  "name": "Yellandu",
  "district": "Bhadradri Kothagudem",
  "state": "Telangana",
  "population": 15620,
  "households": 3900,
  "risk": 78,
  "weather": "Rain",
  "temperature": 27,
  "crop": "Cotton",
  "lat": 17.6000,
  "lng": 80.3200
},
{
  "id": 68,
  "name": "Huzurabad",
  "district": "Karimnagar",
  "state": "Telangana",
  "population": 19480,
  "households": 4870,
  "risk": 52,
  "weather": "Sunny",
  "temperature": 33,
  "crop": "Maize",
  "lat": 18.1970,
  "lng": 79.4020
},
{
  "id": 69,
  "name": "Kodad",
  "district": "Suryapet",
  "state": "Telangana",
  "population": 23640,
  "households": 5910,
  "risk": 58,
  "weather": "Sunny",
  "temperature": 34,
  "crop": "Paddy",
  "lat": 16.9980,
  "lng": 79.9650
},
{
  "id": 70,
  "name": "Devarakonda",
  "district": "Nalgonda",
  "state": "Telangana",
  "population": 16580,
  "households": 4140,
  "risk": 71,
  "weather": "Cloudy",
  "temperature": 31,
  "crop": "Millets",
  "lat": 16.6900,
  "lng": 78.9200
},
{
  "id": 71,
  "name": "Ballari",
  "district": "Ballari",
  "state": "Karnataka",
  "population": 35280,
  "households": 8820,
  "risk": 68,
  "weather": "Sunny",
  "temperature": 35,
  "crop": "Cotton",
  "lat": 15.1394,
  "lng": 76.9214
},
{
  "id": 72,
  "name": "Raichur",
  "district": "Raichur",
  "state": "Karnataka",
  "population": 31460,
  "households": 7860,
  "risk": 73,
  "weather": "Cloudy",
  "temperature": 34,
  "crop": "Paddy",
  "lat": 16.2076,
  "lng": 77.3463
},
{
  "id": 73,
  "name": "Koppal",
  "district": "Koppal",
  "state": "Karnataka",
  "population": 22180,
  "households": 5540,
  "risk": 57,
  "weather": "Sunny",
  "temperature": 33,
  "crop": "Jowar",
  "lat": 15.3459,
  "lng": 76.1548
},
{
  "id": 74,
  "name": "Hospet",
  "district": "Vijayanagara",
  "state": "Karnataka",
  "population": 28650,
  "households": 7160,
  "risk": 64,
  "weather": "Sunny",
  "temperature": 35,
  "crop": "Sugarcane",
  "lat": 15.2695,
  "lng": 76.3909
},
{
  "id": 75,
  "name": "Chitradurga",
  "district": "Chitradurga",
  "state": "Karnataka",
  "population": 24760,
  "households": 6190,
  "risk": 59,
  "weather": "Cloudy",
  "temperature": 31,
  "crop": "Groundnut",
  "lat": 14.2306,
  "lng": 76.3983
},
{
  "id": 76,
  "name": "Tumakuru",
  "district": "Tumakuru",
  "state": "Karnataka",
  "population": 38420,
  "households": 9610,
  "risk": 52,
  "weather": "Sunny",
  "temperature": 30,
  "crop": "Ragi",
  "lat": 13.3379,
  "lng": 77.1173
},
{
  "id": 77,
  "name": "Mandya",
  "district": "Mandya",
  "state": "Karnataka",
  "population": 29840,
  "households": 7460,
  "risk": 61,
  "weather": "Cloudy",
  "temperature": 29,
  "crop": "Sugarcane",
  "lat": 12.5218,
  "lng": 76.8951
},
{
  "id": 78,
  "name": "Mysuru Rural",
  "district": "Mysuru",
  "state": "Karnataka",
  "population": 26720,
  "households": 6680,
  "risk": 46,
  "weather": "Sunny",
  "temperature": 28,
  "crop": "Maize",
  "lat": 12.2958,
  "lng": 76.6394
},
{
  "id": 79,
  "name": "Shivamogga",
  "district": "Shivamogga",
  "state": "Karnataka",
  "population": 31240,
  "households": 7810,
  "risk": 69,
  "weather": "Rain",
  "temperature": 27,
  "crop": "Arecanut",
  "lat": 13.9299,
  "lng": 75.5681
},
{
  "id": 80,
  "name": "Chikkamagaluru",
  "district": "Chikkamagaluru",
  "state": "Karnataka",
  "population": 19860,
  "households": 4960,
  "risk": 82,
  "weather": "Rain",
  "temperature": 24,
  "crop": "Coffee",
  "lat": 13.3161,
  "lng": 75.7720
},
{
  "id": 81,
  "name": "Salem",
  "district": "Salem",
  "state": "Tamil Nadu",
  "population": 36580,
  "households": 9140,
  "risk": 57,
  "weather": "Sunny",
  "temperature": 34,
  "crop": "Turmeric",
  "lat": 11.6643,
  "lng": 78.1460
},
{
  "id": 82,
  "name": "Erode",
  "district": "Erode",
  "state": "Tamil Nadu",
  "population": 33240,
  "households": 8310,
  "risk": 63,
  "weather": "Cloudy",
  "temperature": 33,
  "crop": "Turmeric",
  "lat": 11.3410,
  "lng": 77.7172
},
{
  "id": 83,
  "name": "Namakkal",
  "district": "Namakkal",
  "state": "Tamil Nadu",
  "population": 24580,
  "households": 6140,
  "risk": 54,
  "weather": "Sunny",
  "temperature": 35,
  "crop": "Groundnut",
  "lat": 11.2189,
  "lng": 78.1674
},
{
  "id": 84,
  "name": "Dindigul",
  "district": "Dindigul",
  "state": "Tamil Nadu",
  "population": 29160,
  "households": 7290,
  "risk": 66,
  "weather": "Cloudy",
  "temperature": 31,
  "crop": "Banana",
  "lat": 10.3673,
  "lng": 77.9803
},
{
  "id": 85,
  "name": "Theni",
  "district": "Theni",
  "state": "Tamil Nadu",
  "population": 21650,
  "households": 5410,
  "risk": 72,
  "weather": "Rain",
  "temperature": 28,
  "crop": "Cardamom",
  "lat": 10.0104,
  "lng": 77.4768
},
{
  "id": 86,
  "name": "Pollachi",
  "district": "Coimbatore",
  "state": "Tamil Nadu",
  "population": 30820,
  "households": 7710,
  "risk": 48,
  "weather": "Sunny",
  "temperature": 30,
  "crop": "Coconut",
  "lat": 10.6585,
  "lng": 77.0087
},
{
  "id": 87,
  "name": "Karur",
  "district": "Karur",
  "state": "Tamil Nadu",
  "population": 23680,
  "households": 5920,
  "risk": 61,
  "weather": "Cloudy",
  "temperature": 34,
  "crop": "Sugarcane",
  "lat": 10.9601,
  "lng": 78.0766
},
{
  "id": 88,
  "name": "Tirunelveli",
  "district": "Tirunelveli",
  "state": "Tamil Nadu",
  "population": 41250,
  "households": 10310,
  "risk": 70,
  "weather": "Rain",
  "temperature": 29,
  "crop": "Paddy",
  "lat": 8.7139,
  "lng": 77.7567
},
{
  "id": 89,
  "name": "Kanyakumari",
  "district": "Kanyakumari",
  "state": "Tamil Nadu",
  "population": 19840,
  "households": 4960,
  "risk": 75,
  "weather": "Rain",
  "temperature": 28,
  "crop": "Coconut",
  "lat": 8.0883,
  "lng": 77.5385
},
{
  "id": 90,
  "name": "Ooty",
  "district": "Nilgiris",
  "state": "Tamil Nadu",
  "population": 18260,
  "households": 4560,
  "risk": 44,
  "weather": "Cloudy",
  "temperature": 19,
  "crop": "Tea",
  "lat": 11.4064,
  "lng": 76.6932
},
{
  "id": 91,
  "name": "Palakkad",
  "district": "Palakkad",
  "state": "Kerala",
  "population": 31840,
  "households": 7960,
  "risk": 52,
  "weather": "Cloudy",
  "temperature": 30,
  "crop": "Paddy",
  "lat": 10.7867,
  "lng": 76.6548
},
{
  "id": 92,
  "name": "Wayanad",
  "district": "Wayanad",
  "state": "Kerala",
  "population": 18650,
  "households": 4660,
  "risk": 84,
  "weather": "Rain",
  "temperature": 22,
  "crop": "Coffee",
  "lat": 11.6854,
  "lng": 76.1320
},
{
  "id": 93,
  "name": "Idukki",
  "district": "Idukki",
  "state": "Kerala",
  "population": 17240,
  "households": 4310,
  "risk": 81,
  "weather": "Rain",
  "temperature": 21,
  "crop": "Cardamom",
  "lat": 9.8490,
  "lng": 76.9720
},
{
  "id": 94,
  "name": "Munnar",
  "district": "Idukki",
  "state": "Kerala",
  "population": 14260,
  "households": 3560,
  "risk": 46,
  "weather": "Cloudy",
  "temperature": 18,
  "crop": "Tea",
  "lat": 10.0889,
  "lng": 77.0595
},
{
  "id": 95,
  "name": "Thrissur",
  "district": "Thrissur",
  "state": "Kerala",
  "population": 34120,
  "households": 8530,
  "risk": 59,
  "weather": "Sunny",
  "temperature": 31,
  "crop": "Coconut",
  "lat": 10.5276,
  "lng": 76.2144
},
{
  "id": 96,
  "name": "Alappuzha",
  "district": "Alappuzha",
  "state": "Kerala",
  "population": 28760,
  "households": 7190,
  "risk": 77,
  "weather": "Rain",
  "temperature": 29,
  "crop": "Paddy",
  "lat": 9.4981,
  "lng": 76.3388
},
{
  "id": 97,
  "name": "Kottayam",
  "district": "Kottayam",
  "state": "Kerala",
  "population": 26240,
  "households": 6560,
  "risk": 64,
  "weather": "Cloudy",
  "temperature": 28,
  "crop": "Rubber",
  "lat": 9.5916,
  "lng": 76.5222
},
{
  "id": 98,
  "name": "Pathanamthitta",
  "district": "Pathanamthitta",
  "state": "Kerala",
  "population": 19460,
  "households": 4860,
  "risk": 73,
  "weather": "Rain",
  "temperature": 27,
  "crop": "Pepper",
  "lat": 9.2648,
  "lng": 76.7870
},
{
  "id": 99,
  "name": "Kasaragod",
  "district": "Kasaragod",
  "state": "Kerala",
  "population": 22680,
  "households": 5670,
  "risk": 69,
  "weather": "Cloudy",
  "temperature": 29,
  "crop": "Cashew",
  "lat": 12.4996,
  "lng": 74.9869
},
{
  "id": 100,
  "name": "Kochi Rural",
  "district": "Ernakulam",
  "state": "Kerala",
  "population": 38450,
  "households": 9610,
  "risk": 56,
  "weather": "Sunny",
  "temperature": 30,
  "crop": "Coconut",
  "lat": 9.9312,
  "lng": 76.2673
}

]