[
  {
    "id": 1,
    "name": "Amaravati",
    "district": "Palnadu",
    "population": 15680,
    "households": 3890,
    "risk": 72,
    "weather": "Sunny",
    "temperature": 33,
    "crop": "Cotton",
    "lat": 16.5720,
    "lng": 80.3575
  },
  {
    "id": 2,
    "name": "Puttaparthi",
    "district": "Sri Sathya Sai",
    "population": 11240,
    "households": 2810,
    "risk": 48,
    "weather": "Sunny",
    "temperature": 34,
    "crop": "Groundnut",
    "lat": 14.1652,
    "lng": 77.8117
  },
  {
    "id": 3,
    "name": "Srikalahasti",
    "district": "Tirupati",
    "population": 18420,
    "households": 4560,
    "risk": 67,
    "weather": "Cloudy",
    "temperature": 31,
    "crop": "Paddy",
    "lat": 13.7498,
    "lng": 79.6984
  },
  {
    "id": 4,
    "name": "Araku Valley",
    "district": "Alluri Sitharama Raju",
    "population": 9840,
    "households": 2390,
    "risk": 82,
    "weather": "Rain",
    "temperature": 24,
    "crop": "Coffee",
    "lat": 18.3275,
    "lng": 82.8726
  },
  {
    "id": 5,
    "name": "Mangalagiri",
    "district": "Guntur",
    "population": 21450,
    "households": 5280,
    "risk": 61,
    "weather": "Sunny",
    "temperature": 34,
    "crop": "Cotton",
    "lat": 16.4303,
    "lng": 80.5681
  },
  {
    "id": 6,
    "name": "Bhimavaram",
    "district": "West Godavari",
    "population": 24100,
    "households": 6020,
    "risk": 76,
    "weather": "Cloudy",
    "temperature": 30,
    "crop": "Rice",
    "lat": 16.5449,
    "lng": 81.5212
  },
  {
    "id": 7,
    "name": "Pulivendula",
    "district": "YSR Kadapa",
    "population": 13680,
    "households": 3320,
    "risk": 58,
    "weather": "Sunny",
    "temperature": 35,
    "crop": "Groundnut",
    "lat": 14.4213,
    "lng": 78.2250
  },
  {
    "id": 8,
    "name": "Tekkali",
    "district": "Srikakulam",
    "population": 10350,
    "households": 2510,
    "risk": 83,
    "weather": "Rain",
    "temperature": 28,
    "crop": "Cashew",
    "lat": 18.6064,
    "lng": 84.2356
  },
  {
    "id": 9,
    "name": "Nandigama",
    "district": "NTR",
    "population": 16750,
    "households": 4140,
    "risk": 54,
    "weather": "Sunny",
    "temperature": 33,
    "crop": "Chilli",
    "lat": 16.7717,
    "lng": 80.2867
  },
  {
    "id": 10,
    "name": "Rayadurg",
    "district": "Anantapur",
    "population": 14960,
    "households": 3710,
    "risk": 69,
    "weather": "Cloudy",
    "temperature": 32,
    "crop": "Millets",
    "lat": 14.6995,
    "lng": 76.8522
  }

,
  {
    "id": 11,
    "name": "Simhachalam",
    "district": "Visakhapatnam",
    "population": 18520,
    "households": 4620,
    "risk": 65,
    "weather": "Cloudy",
    "temperature": 29,
    "crop": "Cashew",
    "lat": 17.7667,
    "lng": 83.2500
  },
  {
    "id": 12,
    "name": "Bobbili",
    "district": "Vizianagaram",
    "population": 16840,
    "households": 4210,
    "risk": 57,
    "weather": "Sunny",
    "temperature": 31,
    "crop": "Sugarcane",
    "lat": 18.5730,
    "lng": 83.3570
  },
  {
    "id": 13,
    "name": "Salur",
    "district": "Parvathipuram Manyam",
    "population": 12260,
    "households": 3040,
    "risk": 81,
    "weather": "Rain",
    "temperature": 25,
    "crop": "Turmeric",
    "lat": 18.5170,
    "lng": 83.2050
  },
  {
    "id": 14,
    "name": "Kakinada Rural",
    "district": "Kakinada",
    "population": 21400,
    "households": 5330,
    "risk": 73,
    "weather": "Cloudy",
    "temperature": 30,
    "crop": "Rice",
    "lat": 16.9890,
    "lng": 82.2475
  },
  {
    "id": 15,
    "name": "Amalapuram",
    "district": "Konaseema",
    "population": 19680,
    "households": 4880,
    "risk": 42,
    "weather": "Sunny",
    "temperature": 31,
    "crop": "Coconut",
    "lat": 16.5780,
    "lng": 82.0060
  },
  {
    "id": 16,
    "name": "Nuzvid",
    "district": "Eluru",
    "population": 17430,
    "households": 4360,
    "risk": 62,
    "weather": "Sunny",
    "temperature": 33,
    "crop": "Mango",
    "lat": 16.7890,
    "lng": 80.8450
  },
  {
    "id": 17,
    "name": "Addanki",
    "district": "Bapatla",
    "population": 13980,
    "households": 3490,
    "risk": 70,
    "weather": "Cloudy",
    "temperature": 32,
    "crop": "Tobacco",
    "lat": 15.8100,
    "lng": 79.9730
  },
  {
    "id": 18,
    "name": "Markapur",
    "district": "Prakasam",
    "population": 22840,
    "households": 5690,
    "risk": 88,
    "weather": "Rain",
    "temperature": 27,
    "crop": "Cotton",
    "lat": 15.7350,
    "lng": 79.2680
  },
  {
    "id": 19,
    "name": "Atmakur",
    "district": "SPSR Nellore",
    "population": 14650,
    "households": 3650,
    "risk": 53,
    "weather": "Sunny",
    "temperature": 34,
    "crop": "Paddy",
    "lat": 14.6200,
    "lng": 79.6100
  },
  {
    "id": 20,
    "name": "Udayagiri",
    "district": "SPSR Nellore",
    "population": 11840,
    "households": 2950,
    "risk": 79,
    "weather": "Cloudy",
    "temperature": 30,
    "crop": "Groundnut",
    "lat": 14.8700,
    "lng": 79.3100
  },

{
  "id": 21,
  "name": "Nandyal",
  "district": "Nandyal",
  "population": 24780,
  "households": 6190,
  "risk": 66,
  "weather": "Sunny",
  "temperature": 34,
  "crop": "Cotton",
  "lat": 15.4781,
  "lng": 78.4836
},
{
  "id": 22,
  "name": "Adoni",
  "district": "Kurnool",
  "population": 21460,
  "households": 5360,
  "risk": 57,
  "weather": "Cloudy",
  "temperature": 35,
  "crop": "Groundnut",
  "lat": 15.6279,
  "lng": 77.2749
},
{
  "id": 23,
  "name": "Madanapalle",
  "district": "Annamayya",
  "population": 19820,
  "households": 4950,
  "risk": 61,
  "weather": "Sunny",
  "temperature": 29,
  "crop": "Tomato",
  "lat": 13.5503,
  "lng": 78.5029
},
{
  "id": 24,
  "name": "Punganur",
  "district": "Chittoor",
  "population": 12650,
  "households": 3140,
  "risk": 49,
  "weather": "Sunny",
  "temperature": 31,
  "crop": "Mango",
  "lat": 13.3665,
  "lng": 78.5719
},
{
  "id": 25,
  "name": "Machilipatnam",
  "district": "Krishna",
  "population": 23240,
  "households": 5810,
  "risk": 78,
  "weather": "Cloudy",
  "temperature": 30,
  "crop": "Paddy",
  "lat": 16.1875,
  "lng": 81.1389
},
{
  "id": 26,
  "name": "Gudivada",
  "district": "Krishna",
  "population": 22160,
  "households": 5530,
  "risk": 55,
  "weather": "Sunny",
  "temperature": 33,
  "crop": "Sugarcane",
  "lat": 16.4355,
  "lng": 80.9956
},
{
  "id": 27,
  "name": "Tuni",
  "district": "Kakinada",
  "population": 18640,
  "households": 4660,
  "risk": 71,
  "weather": "Cloudy",
  "temperature": 30,
  "crop": "Coconut",
  "lat": 17.3591,
  "lng": 82.5460
},
{
  "id": 28,
  "name": "Paderu",
  "district": "Alluri Sitharama Raju",
  "population": 10580,
  "households": 2640,
  "risk": 89,
  "weather": "Rain",
  "temperature": 23,
  "crop": "Coffee",
  "lat": 18.0816,
  "lng": 82.6128
},
{
  "id": 29,
  "name": "Rajamahendravaram Rural",
  "district": "East Godavari",
  "population": 20890,
  "households": 5210,
  "risk": 64,
  "weather": "Cloudy",
  "temperature": 31,
  "crop": "Paddy",
  "lat": 17.0005,
  "lng": 81.8040
},
{
  "id": 30,
  "name": "Bhadrachalam Road",
  "district": "Eluru",
  "population": 11780,
  "households": 2930,
  "risk": 83,
  "weather": "Rain",
  "temperature": 27,
  "crop": "Chilli",
  "lat": 17.8782,
  "lng": 81.9312
}
,
{
  "id": 21,
  "name": "Nandyal",
  "district": "Nandyal",
  "population": 24780,
  "households": 6190,
  "risk": 66,
  "weather": "Sunny",
  "temperature": 34,
  "crop": "Cotton",
  "lat": 15.4781,
  "lng": 78.4836
},
{
  "id": 22,
  "name": "Adoni",
  "district": "Kurnool",
  "population": 21460,
  "households": 5360,
  "risk": 57,
  "weather": "Cloudy",
  "temperature": 35,
  "crop": "Groundnut",
  "lat": 15.6279,
  "lng": 77.2749
},
{
  "id": 23,
  "name": "Madanapalle",
  "district": "Annamayya",
  "population": 19820,
  "households": 4950,
  "risk": 61,
  "weather": "Sunny",
  "temperature": 29,
  "crop": "Tomato",
  "lat": 13.5503,
  "lng": 78.5029
},
{
  "id": 24,
  "name": "Punganur",
  "district": "Chittoor",
  "population": 12650,
  "households": 3140,
  "risk": 49,
  "weather": "Sunny",
  "temperature": 31,
  "crop": "Mango",
  "lat": 13.3665,
  "lng": 78.5719
},
{
  "id": 25,
  "name": "Machilipatnam",
  "district": "Krishna",
  "population": 23240,
  "households": 5810,
  "risk": 78,
  "weather": "Cloudy",
  "temperature": 30,
  "crop": "Paddy",
  "lat": 16.1875,
  "lng": 81.1389
},
{
  "id": 26,
  "name": "Gudivada",
  "district": "Krishna",
  "population": 22160,
  "households": 5530,
  "risk": 55,
  "weather": "Sunny",
  "temperature": 33,
  "crop": "Sugarcane",
  "lat": 16.4355,
  "lng": 80.9956
},
{
  "id": 27,
  "name": "Tuni",
  "district": "Kakinada",
  "population": 18640,
  "households": 4660,
  "risk": 71,
  "weather": "Cloudy",
  "temperature": 30,
  "crop": "Coconut",
  "lat": 17.3591,
  "lng": 82.5460
},
{
  "id": 28,
  "name": "Paderu",
  "district": "Alluri Sitharama Raju",
  "population": 10580,
  "households": 2640,
  "risk": 89,
  "weather": "Rain",
  "temperature": 23,
  "crop": "Coffee",
  "lat": 18.0816,
  "lng": 82.6128
},
{
  "id": 29,
  "name": "Rajamahendravaram Rural",
  "district": "East Godavari",
  "population": 20890,
  "households": 5210,
  "risk": 64,
  "weather": "Cloudy",
  "temperature": 31,
  "crop": "Paddy",
  "lat": 17.0005,
  "lng": 81.8040
},
{
  "id": 30,
  "name": "Bhadrachalam Road",
  "district": "Eluru",
  "population": 11780,
  "households": 2930,
  "risk": 83,
  "weather": "Rain",
  "temperature": 27,
  "crop": "Chilli",
  "lat": 17.8782,
  "lng": 81.9312
}
,
{
  "id": 41,
  "name": "Bhadrachalam",
  "district": "Bhadradri Kothagudem",
  "state": "Telangana",
  "population": 24180,
  "households": 6050,
  "risk": 79,
  "weather": "Rain",
  "temperature": 29,
  "crop": "Chilli",
  "lat": 17.6688,
  "lng": 80.8932
},
{
  "id": 42,
  "name": "Medak",
  "district": "Medak",
  "state": "Telangana",
  "population": 18450,
  "households": 4610,
  "risk": 61,
  "weather": "Cloudy",
  "temperature": 30,
  "crop": "Maize",
  "lat": 18.0453,
  "lng": 78.2600
},
{
  "id": 43,
  "name": "Siddipet",
  "district": "Siddipet",
  "state": "Telangana",
  "population": 26740,
  "households": 6680,
  "risk": 54,
  "weather": "Sunny",
  "temperature": 33,
  "crop": "Cotton",
  "lat": 18.1040,
  "lng": 78.8520
},
{
  "id": 44,
  "name": "Jagtial",
  "district": "Jagtial",
  "state": "Telangana",
  "population": 22360,
  "households": 5590,
  "risk": 71,
  "weather": "Cloudy",
  "temperature": 31,
  "crop": "Turmeric",
  "lat": 18.7909,
  "lng": 78.9120
},
{
  "id": 45,
  "name": "Mahabubnagar",
  "district": "Mahabubnagar",
  "state": "Telangana",
  "population": 29680,
  "households": 7420,
  "risk": 66,
  "weather": "Sunny",
  "temperature": 34,
  "crop": "Groundnut",
  "lat": 16.7488,
  "lng": 77.9860
},
{
  "id": 46,
  "name": "Kamareddy",
  "district": "Kamareddy",
  "state": "Telangana",
  "population": 20540,
  "households": 5130,
  "risk": 58,
  "weather": "Sunny",
  "temperature": 32,
  "crop": "Sugarcane",
  "lat": 18.3200,
  "lng": 78.3400
},
{
  "id": 47,
  "name": "Atchampet",
  "district": "Palnadu",
  "state": "Andhra Pradesh",
  "population": 13920,
  "households": 3480,
  "risk": 83,
  "weather": "Rain",
  "temperature": 28,
  "crop": "Cotton",
  "lat": 16.0880,
  "lng": 79.7430
},
{
  "id": 48,
  "name": "Macherla",
  "district": "Palnadu",
  "state": "Andhra Pradesh",
  "population": 19280,
  "households": 4820,
  "risk": 64,
  "weather": "Cloudy",
  "temperature": 30,
  "crop": "Chilli",
  "lat": 16.4760,
  "lng": 79.4350
},
{
  "id": 49,
  "name": "Suryapet",
  "district": "Suryapet",
  "state": "Telangana",
  "population": 31850,
  "households": 7960,
  "risk": 75,
  "weather": "Sunny",
  "temperature": 34,
  "crop": "Paddy",
  "lat": 17.1400,
  "lng": 79.6200
},
{
  "id": 50,
  "name": "Vikarabad",
  "district": "Vikarabad",
  "state": "Telangana",
  "population": 17680,
  "households": 4420,
  "risk": 47,
  "weather": "Cloudy",
  "temperature": 29,
  "crop": "Maize",
  "lat": 17.3380,
  "lng": 77.9040
}

]